{
"type": "FeatureCollection",
"name": "bwdb",
"crs": { "type": "name", "properties": { "name": "urn:ogc:def:crs:OGC:1.3:CRS84" } },
"features": [
{ "type": "Feature", "properties": { "ID": "WL058", "Lon": 89.3852, "Lat": 23.1145, "Name": "Afraghat" }, "geometry": { "type": "Point", "coordinates": [ 89.3852, 23.1145 ] } },
{ "type": "Feature", "properties": { "ID": "WL059", "Lon": 90.2222, "Lat": 22.1446, "Name": "Amtali" }, "geometry": { "type": "Point", "coordinates": [ 90.2222, 22.1446 ] } },
{ "type": "Feature", "properties": { "ID": "WL060", "Lon": 89.3818, "Lat": 23.3827, "Name": "Arpara" }, "geometry": { "type": "Point", "coordinates": [ 89.3818, 23.3827 ] } },
{ "type": "Feature", "properties": { "ID": "WL061", "Lon": 90.3155, "Lat": 22.8221, "Name": "Babuganj" }, "geometry": { "type": "Point", "coordinates": [ 90.3155, 22.8221 ] } },
{ "type": "Feature", "properties": { "ID": "WL062", "Lon": 89.8044, "Lat": 22.6486, "Name": "Bagerhat" }, "geometry": { "type": "Point", "coordinates": [ 89.8044, 22.6486 ] } },
{ "type": "Feature", "properties": { "ID": "WL063", "Lon": 90.3395, "Lat": 22.5455, "Name": "Bakerganj" }, "geometry": { "type": "Point", "coordinates": [ 90.3395, 22.5455 ] } },
{ "type": "Feature", "properties": { "ID": "WL064", "Lon": 90.0969, "Lat": 22.3444, "Name": "Bamna" }, "geometry": { "type": "Point", "coordinates": [ 90.0969, 22.3444 ] } },
{ "type": "Feature", "properties": { "ID": "WL065", "Lon": 90.0747, "Lat": 22.1584, "Name": "Barguna" }, "geometry": { "type": "Point", "coordinates": [ 90.0747, 22.1584 ] } },
{ "type": "Feature", "properties": { "ID": "WL066", "Lon": 90.3804, "Lat": 22.6992, "Name": "Barisal" }, "geometry": { "type": "Point", "coordinates": [ 90.3804, 22.6992 ] } },
{ "type": "Feature", "properties": { "ID": "WL067", "Lon": 89.0161, "Lat": 22.3069, "Name": "Basantapur" }, "geometry": { "type": "Point", "coordinates": [ 89.0161, 22.3069 ] } },
{ "type": "Feature", "properties": { "ID": "WL068", "Lon": 90.1799, "Lat": 22.4349, "Name": "Betagi" }, "geometry": { "type": "Point", "coordinates": [ 90.1799, 22.4349 ] } },
{ "type": "Feature", "properties": { "ID": "WL069", "Lon": 90.1867, "Lat": 23.4864, "Name": "Bhagyakul" }, "geometry": { "type": "Point", "coordinates": [ 90.1867, 23.4864 ] } },
{ "type": "Feature", "properties": { "ID": "WL070", "Lon": 89.9896, "Lat": 23.3832, "Name": "Bhanga" }, "geometry": { "type": "Point", "coordinates": [ 89.9896, 23.3832 ] } },
{ "type": "Feature", "properties": { "ID": "WL071", "Lon": 89.6919, "Lat": 23.2153, "Name": "Bhatiapara" }, "geometry": { "type": "Point", "coordinates": [ 89.6919, 23.2153 ] } },
{ "type": "Feature", "properties": { "ID": "WL072", "Lon": 90.7525, "Lat": 22.8574, "Name": "Bhawaganj" }, "geometry": { "type": "Point", "coordinates": [ 90.7525, 22.8574 ] } },
{ "type": "Feature", "properties": { "ID": "WL073", "Lon": 90.5707, "Lat": 22.6799, "Name": "BholaKheyaGhat" }, "geometry": { "type": "Point", "coordinates": [ 90.5707, 22.6799 ] } },
{ "type": "Feature", "properties": { "ID": "WL074", "Lon": 89.5279, "Lat": 22.6031, "Name": "Chalna" }, "geometry": { "type": "Point", "coordinates": [ 89.5279, 22.6031 ] } },
{ "type": "Feature", "properties": { "ID": "WL075", "Lon": 90.8557, "Lat": 22.6579, "Name": "Chitalkhali" }, "geometry": { "type": "Point", "coordinates": [ 90.8557, 22.6579 ] } },
{ "type": "Feature", "properties": { "ID": "WL076", "Lon": 90.8214, "Lat": 22.6053, "Name": "Daulatkhan" }, "geometry": { "type": "Point", "coordinates": [ 90.8214, 22.6053 ] } },
{ "type": "Feature", "properties": { "ID": "WL077", "Lon": 91.8982, "Lat": 22.4069, "Name": "Enayethat" }, "geometry": { "type": "Point", "coordinates": [ 91.8982, 22.4069 ] } },
{ "type": "Feature", "properties": { "ID": "WL078", "Lon": 89.8314, "Lat": 23.5981, "Name": "Faridpur" }, "geometry": { "type": "Point", "coordinates": [ 89.8314, 23.5981 ] } },
{ "type": "Feature", "properties": { "ID": "WL079", "Lon": 89.5581, "Lat": 22.9609, "Name": "Gazirhat" }, "geometry": { "type": "Point", "coordinates": [ 89.5581, 22.9609 ] } },
{ "type": "Feature", "properties": { "ID": "WL080", "Lon": 90.4201, "Lat": 22.1775, "Name": "Galachipa" }, "geometry": { "type": "Point", "coordinates": [ 90.4201, 22.1775 ] } },
{ "type": "Feature", "properties": { "ID": "WL081", "Lon": 90.2319, "Lat": 22.9776, "Name": "Gournadi" }, "geometry": { "type": "Point", "coordinates": [ 90.2319, 22.9776 ] } },
{ "type": "Feature", "properties": { "ID": "WL082", "Lon": 90.6569, "Lat": 23.266, "Name": "Hajiganj" }, "geometry": { "type": "Point", "coordinates": [ 90.6569, 23.266 ] } },
{ "type": "Feature", "properties": { "ID": "WL083", "Lon": 89.8185, "Lat": 23.0545, "Name": "Haridaspur" }, "geometry": { "type": "Point", "coordinates": [ 89.8185, 23.0545 ] } },
{ "type": "Feature", "properties": { "ID": "WL084", "Lon": 91.1098, "Lat": 22.4251, "Name": "Haitya" }, "geometry": { "type": "Point", "coordinates": [ 91.1098, 22.4251 ] } },
{ "type": "Feature", "properties": { "ID": "WL085", "Lon": 90.1782, "Lat": 22.6265, "Name": "Jhalokati" }, "geometry": { "type": "Point", "coordinates": [ 90.1782, 22.6265 ] } },
{ "type": "Feature", "properties": { "ID": "WL086", "Lon": 90.0904, "Lat": 23.2693, "Name": "Kabirajpur" }, "geometry": { "type": "Point", "coordinates": [ 90.0904, 23.2693 ] } },
{ "type": "Feature", "properties": { "ID": "WL087", "Lon": 89.0782, "Lat": 22.1896, "Name": "Kaikhali" }, "geometry": { "type": "Point", "coordinates": [ 89.0782, 22.1896 ] } },
{ "type": "Feature", "properties": { "ID": "WL088", "Lon": 90.4428, "Lat": 22.4567, "Name": "Kaitpara" }, "geometry": { "type": "Point", "coordinates": [ 90.4428, 22.4567 ] } },
{ "type": "Feature", "properties": { "ID": "WL089", "Lon": 89.5309, "Lat": 23.2387, "Name": "KalaChandpur" }, "geometry": { "type": "Point", "coordinates": [ 89.5309, 23.2387 ] } },
{ "type": "Feature", "properties": { "ID": "WL090", "Lon": 89.4379, "Lat": 23.2593, "Name": "KhaturMagura" }, "geometry": { "type": "Point", "coordinates": [ 89.4379, 23.2593 ] } },
{ "type": "Feature", "properties": { "ID": "WL091", "Lon": 89.5711, "Lat": 22.8184, "Name": "Khulna" }, "geometry": { "type": "Point", "coordinates": [ 89.5711, 22.8184 ] } },
{ "type": "Feature", "properties": { "ID": "WL092", "Lon": 89.3055, "Lat": 22.2145, "Name": "Kobadak" }, "geometry": { "type": "Point", "coordinates": [ 89.3055, 22.2145 ] } },
{ "type": "Feature", "properties": { "ID": "WL093", "Lon": 90.7442, "Lat": 22.8705, "Name": "Lakshmipur" }, "geometry": { "type": "Point", "coordinates": [ 90.7442, 22.8705 ] } },
{ "type": "Feature", "properties": { "ID": "WL094", "Lon": 91.8992, "Lat": 21.8487, "Name": "Lemiskhali" }, "geometry": { "type": "Point", "coordinates": [ 91.8992, 21.8487 ] } },
{ "type": "Feature", "properties": { "ID": "WL095", "Lon": 89.6535, "Lat": 23.1803, "Name": "Lohagora" }, "geometry": { "type": "Point", "coordinates": [ 89.6535, 23.1803 ] } },
{ "type": "Feature", "properties": { "ID": "WL096", "Lon": 90.2105, "Lat": 23.1877, "Name": "Madaripur" }, "geometry": { "type": "Point", "coordinates": [ 90.2105, 23.1877 ] } },
{ "type": "Feature", "properties": { "ID": "WL097", "Lon": 90.6429, "Lat": 23.3215, "Name": "MatlabBazar" }, "geometry": { "type": "Point", "coordinates": [ 90.6429, 23.3215 ] } },
{ "type": "Feature", "properties": { "ID": "WL098", "Lon": 90.2552, "Lat": 23.4601, "Name": "Mawa" }, "geometry": { "type": "Point", "coordinates": [ 90.2552, 23.4601 ] } },
{ "type": "Feature", "properties": { "ID": "WL099", "Lon": 90.2293, "Lat": 22.3431, "Name": "Mirzaganj" }, "geometry": { "type": "Point", "coordinates": [ 90.2293, 22.3431 ] } },
{ "type": "Feature", "properties": { "ID": "WL100", "Lon": 89.5937, "Lat": 22.4696, "Name": "Mongla" }, "geometry": { "type": "Point", "coordinates": [ 89.5937, 22.4696 ] } },
{ "type": "Feature", "properties": { "ID": "WL101", "Lon": 90.1385, "Lat": 23.1615, "Name": "Mostafapur" }, "geometry": { "type": "Point", "coordinates": [ 90.1385, 23.1615 ] } },
{ "type": "Feature", "properties": { "ID": "WL102", "Lon": 89.4234, "Lat": 22.4574, "Name": "NalianalaHadda" }, "geometry": { "type": "Point", "coordinates": [ 89.4234, 22.4574 ] } },
{ "type": "Feature", "properties": { "ID": "WL103", "Lon": 89.5078, "Lat": 23.172, "Name": "Narail" }, "geometry": { "type": "Point", "coordinates": [ 89.5078, 23.172 ] } },
{ "type": "Feature", "properties": { "ID": "WL104", "Lon": 89.9678, "Lat": 22.7074, "Name": "Nazirpur" }, "geometry": { "type": "Point", "coordinates": [ 89.9678, 22.7074 ] } },
{ "type": "Feature", "properties": { "ID": "WL105", "Lon": 90.5735, "Lat": 23.0752, "Name": "Nilkamal" }, "geometry": { "type": "Point", "coordinates": [ 90.5735, 23.0752 ] } },
{ "type": "Feature", "properties": { "ID": "WL106", "Lon": 90.0935, "Lat": 23.462, "Name": "OfftakeArialkhan" }, "geometry": { "type": "Point", "coordinates": [ 90.0935, 23.462 ] } },
{ "type": "Feature", "properties": { "ID": "WL107", "Lon": 89.7902, "Lat": 22.9814, "Name": "OfftakeAtherobanki" }, "geometry": { "type": "Point", "coordinates": [ 89.7902, 22.9814 ] } },
{ "type": "Feature", "properties": { "ID": "WL108", "Lon": 91.9319, "Lat": 22.4227, "Name": "OutfallKarnafuli" }, "geometry": { "type": "Point", "coordinates": [ 91.9319, 22.4227 ] } },
{ "type": "Feature", "properties": { "ID": "WL109", "Lon": 89.3888, "Lat": 22.5783, "Name": "Paikgacha" }, "geometry": { "type": "Point", "coordinates": [ 89.3888, 22.5783 ] } },
{ "type": "Feature", "properties": { "ID": "WL110", "Lon": 89.981, "Lat": 22.0354, "Name": "Pathargata" }, "geometry": { "type": "Point", "coordinates": [ 89.981, 22.0354 ] } },
{ "type": "Feature", "properties": { "ID": "WL111", "Lon": 89.9647, "Lat": 22.5821, "Name": "Pirojpur" }, "geometry": { "type": "Point", "coordinates": [ 89.9647, 22.5821 ] } },
{ "type": "Feature", "properties": { "ID": "WL112", "Lon": 89.2356, "Lat": 22.2902, "Name": "Protapnagar" }, "geometry": { "type": "Point", "coordinates": [ 89.2356, 22.2902 ] } },
{ "type": "Feature", "properties": { "ID": "WL113", "Lon": 89.5149, "Lat": 23.1974, "Name": "Ratandanga" }, "geometry": { "type": "Point", "coordinates": [ 89.5149, 23.1974 ] } },
{ "type": "Feature", "properties": { "ID": "WL114", "Lon": 89.8643, "Lat": 22.3125, "Name": "Rayenda" }, "geometry": { "type": "Point", "coordinates": [ 89.8643, 22.3125 ] } },
{ "type": "Feature", "properties": { "ID": "WL115", "Lon": 91.9798, "Lat": 21.6501, "Name": "Saflapur" }, "geometry": { "type": "Point", "coordinates": [ 91.9798, 21.6501 ] } },
{ "type": "Feature", "properties": { "ID": "WL116", "Lon": 90.5871, "Lat": 23.4732, "Name": "Satnal" }, "geometry": { "type": "Point", "coordinates": [ 90.5871, 23.4732 ] } },
{ "type": "Feature", "properties": { "ID": "WL117", "Lon": 88.9457, "Lat": 22.3168, "Name": "Shakra" }, "geometry": { "type": "Point", "coordinates": [ 88.9457, 22.3168 ] } },
{ "type": "Feature", "properties": { "ID": "WL118", "Lon": 90.4243, "Lat": 23.3288, "Name": "Sureswar" }, "geometry": { "type": "Point", "coordinates": [ 90.4243, 23.3288 ] } },
{ "type": "Feature", "properties": { "ID": "WL119", "Lon": 89.4197, "Lat": 22.5073, "Name": "Sutarkhali" }, "geometry": { "type": "Point", "coordinates": [ 89.4197, 22.5073 ] } },
{ "type": "Feature", "properties": { "ID": "WL120", "Lon": 90.1046, "Lat": 22.766, "Name": "Swarupkati" }, "geometry": { "type": "Point", "coordinates": [ 90.1046, 22.766 ] } },
{ "type": "Feature", "properties": { "ID": "WL121", "Lon": 90.852, "Lat": 22.4696, "Name": "Tajumuddin" }, "geometry": { "type": "Point", "coordinates": [ 90.852, 22.4696 ] } },
{ "type": "Feature", "properties": { "ID": "WL122", "Lon": 90.4775, "Lat": 23.4049, "Name": "Tarpasa" }, "geometry": { "type": "Point", "coordinates": [ 90.4775, 23.4049 ] } },
{ "type": "Feature", "properties": { "ID": "WL123", "Lon": 91.8567, "Lat": 22.4688, "Name": "Telpari" }, "geometry": { "type": "Point", "coordinates": [ 91.8567, 22.4688 ] } },
{ "type": "Feature", "properties": { "ID": "WL124", "Lon": 90.487, "Lat": 22.6767, "Name": "Tongibari" }, "geometry": { "type": "Point", "coordinates": [ 90.487, 22.6767 ] } },
{ "type": "Feature", "properties": { "ID": "WL125", "Lon": 89.976, "Lat": 22.4915, "Name": "Umedpur" }, "geometry": { "type": "Point", "coordinates": [ 89.976, 22.4915 ] } },
{ "type": "Feature", "properties": { "ID": "WL126", "Lon": 90.2535, "Lat": 22.8067, "Name": "Uzirpur" }, "geometry": { "type": "Point", "coordinates": [ 90.2535, 22.8067 ] } }
]
}
